{"carousel": [{"id": "slide-1", "image": "https://trae-api-cn.mchost.guru/api/ide/v1/text_to_image?prompt=Professional%20cloud%20computing%20datacenter%20servers%20blue%20technology%20background%20digital%20network%20infrastructure%20futuristic&image_size=landscape_16_9", "title": "全球云计算服务提供商", "description": "语云科技为您提供安全、稳定、高效的云计算与网络服务，覆盖全球12个节点，助力企业数字化转型", "ctaText": "立即咨询", "ctaLink": "/contact.html", "order": 0, "enabled": true}, {"id": "slide-2", "image": "https://trae-api-cn.mchost.guru/api/ide/v1/text_to_image?prompt=Global%20network%20connection%20world%20map%20digital%20fiber%20optic%20technology%20blue%20orange%20accent%20corporate&image_size=landscape_16_9", "title": "全球网络加速解决方案", "description": "遍布亚洲、欧洲、北美的优质网络节点，为企业提供低延迟、高可用的全球加速服务", "ctaText": "了解详情", "ctaLink": "/products.html", "order": 1, "enabled": true}, {"id": "slide-3", "image": "https://trae-api-cn.mchost.guru/api/ide/v1/text_to_image?prompt=Cybersecurity%20shield%20protection%20digital%20security%20technology%20blue%20gradient%20corporate%20background&image_size=landscape_16_9", "title": "企业级安全防护体系", "description": "多层防御架构、7×24小时安全监控、DDoS防护，全方位保障您的业务安全运行", "ctaText": "免费试用", "ctaLink": "/contact.html", "order": 2, "enabled": true}], "certs": [{"id": "cert-1", "name": "营业执照", "image": "", "description": "语云科技美国有限公司持有合法营业执照，在中国境内开展业务经相关主管部门批准"}, {"id": "cert-2", "name": "增值电信业务经营许可证", "image": "", "description": "持有中华人民共和国增值电信业务经营许可证，合法提供互联网数据中心、互联网接入服务等业务"}], "globalNodes": [{"id": "node-1", "city": "北京", "country": "中国", "lat": 39.9042, "lng": 116.4074, "name": "语云科技北京总部", "description": "公司总部所在地，负责亚太区业务运营与技术支持中心"}, {"id": "node-2", "city": "青岛", "country": "中国", "lat": 36.0671, "lng": 120.3826, "name": "青岛研发中心", "description": "核心技术研发基地，专注于云计算平台与网络安全技术研发"}, {"id": "node-3", "city": "首尔", "country": "韩国", "lat": 37.5665, "lng": 126.978, "name": "韩国首尔节点", "description": "东北亚核心节点，服务于韩国及日本地区客户"}, {"id": "node-4", "city": "新加坡", "country": "新加坡", "lat": 1.3521, "lng": 103.8198, "name": "新加坡节点", "description": "东南亚区域枢纽，覆盖东南亚十国市场"}, {"id": "node-5", "city": "莫斯科", "country": "俄罗斯", "lat": 55.7558, "lng": 37.6173, "name": "俄罗斯莫斯科节点", "description": "俄语区核心节点，覆盖独联体国家及东欧市场"}, {"id": "node-6", "city": "圣彼得堡", "country": "俄罗斯", "lat": 59.9343, "lng": 30.3351, "name": "圣彼得堡节点", "description": "俄罗斯西北部重要节点，为欧洲方向客户提供低延迟服务"}, {"id": "node-7", "city": "迪拜", "country": "阿联酋", "lat": 25.2048, "lng": 55.2708, "name": "中东迪拜节点", "description": "中东及北非区域枢纽，连接欧亚非三大洲网络"}, {"id": "node-8", "city": "法兰克福", "country": "德国", "lat": 50.1109, "lng": 8.6821, "name": "欧洲法兰克福节点", "description": "欧洲核心节点，覆盖欧盟全境及周边国家"}, {"id": "node-9", "city": "纽约", "country": "美国", "lat": 40.7128, "lng": -74.006, "name": "美国纽约节点", "description": "美东核心节点，服务北美东部客户群"}, {"id": "node-10", "city": "华盛顿", "country": "美国", "lat": 38.9072, "lng": -77.0369, "name": "美国华盛顿节点", "description": "美东政商中心节点，满足政府及企业级合规需求"}, {"id": "node-11", "city": "旧金山", "country": "美国", "lat": 37.7749, "lng": -122.4194, "name": "美国硅谷节点", "description": "美西科技创新中心节点，服务硅谷及周边高科技企业"}, {"id": "node-12", "city": "悉尼", "country": "澳大利亚", "lat": -33.8688, "lng": 151.2093, "name": "澳大利亚悉尼节点", "description": "大洋洲核心节点，覆盖澳大利亚及新西兰市场"}]}